[{"date": "2020-04-21", "county": "Albany", "state": "New York", "fips": 36001.0, "cases": 704, "deaths": 36, "Latitude": "42.588271", "Longitude": "-73.974014"}, {"date": "2020-04-21", "county": "Allegany", "state": "New York", "fips": 36003.0, "cases": 30, "deaths": 0, "Latitude": "42.247894", "Longitude": "-78.026176"}, {"date": "2020-04-21", "county": "Broome", "state": "New York", "fips": 36007.0, "cases": 205, "deaths": 7, "Latitude": "42.161977", "Longitude": "-75.830291"}, {"date": "2020-04-21", "county": "Cattaraugus", "state": "New York", "fips": 36009.0, "cases": 35, "deaths": 0, "Latitude": "42.244853", "Longitude": "-78.681006"}, {"date": "2020-04-21", "county": "Cayuga", "state": "New York", "fips": 36011.0, "cases": 36, "deaths": 1, "Latitude": "43.008546", "Longitude": "-76.574587"}, {"date": "2020-04-21", "county": "Chautauqua", "state": "New York", "fips": 36013.0, "cases": 25, "deaths": 1, "Latitude": "42.304216", "Longitude": "-79.407595"}, {"date": "2020-04-21", "county": "Chemung", "state": "New York", "fips": 36015.0, "cases": 75, "deaths": 2, "Latitude": "42.155281", "Longitude": "-76.747179"}, {"date": "2020-04-21", "county": "Chenango", "state": "New York", "fips": 36017.0, "cases": 79, "deaths": 0, "Latitude": "42.489732", "Longitude": "-75.604905"}, {"date": "2020-04-21", "county": "Clinton", "state": "New York", "fips": 36019.0, "cases": 51, "deaths": 3, "Latitude": "44.752710", "Longitude": "-73.705648"}, {"date": "2020-04-21", "county": "Columbia", "state": "New York", "fips": 36021.0, "cases": 113, "deaths": 16, "Latitude": "42.247729", "Longitude": "-73.626805"}, {"date": "2020-04-21", "county": "Cortland", "state": "New York", "fips": 36023.0, "cases": 25, "deaths": 0, "Latitude": "42.593824", "Longitude": "-76.076265"}, {"date": "2020-04-21", "county": "Delaware", "state": "New York", "fips": 36025.0, "cases": 49, "deaths": 0, "Latitude": "42.193987", "Longitude": "-74.966728"}, {"date": "2020-04-21", "county": "Dutchess", "state": "New York", "fips": 36027.0, "cases": 2331, "deaths": 53, "Latitude": "41.755009", "Longitude": "-73.739951"}, {"date": "2020-04-21", "county": "Erie", "state": "New York", "fips": 36029.0, "cases": 2147, "deaths": 161, "Latitude": "42.752759", "Longitude": "-78.778192"}, {"date": "2020-04-21", "county": "Essex", "state": "New York", "fips": 36031.0, "cases": 27, "deaths": 0, "Latitude": "44.108971", "Longitude": "-73.777573"}, {"date": "2020-04-21", "county": "Franklin", "state": "New York", "fips": 36033.0, "cases": 13, "deaths": 0, "Latitude": "44.594374", "Longitude": "-74.310670"}, {"date": "2020-04-21", "county": "Fulton", "state": "New York", "fips": 36035.0, "cases": 27, "deaths": 0, "Latitude": "43.115609", "Longitude": "-74.423678"}, {"date": "2020-04-21", "county": "Genesee", "state": "New York", "fips": 36037.0, "cases": 121, "deaths": 2, "Latitude": "43.000910", "Longitude": "-78.192778"}, {"date": "2020-04-21", "county": "Greene", "state": "New York", "fips": 36039.0, "cases": 87, "deaths": 0, "Latitude": "42.286951", "Longitude": "-74.149495"}, {"date": "2020-04-21", "county": "Hamilton", "state": "New York", "fips": 36041.0, "cases": 3, "deaths": 0, "Latitude": "43.657879", "Longitude": "-74.502456"}, {"date": "2020-04-21", "county": "Herkimer", "state": "New York", "fips": 36043.0, "cases": 50, "deaths": 1, "Latitude": "43.461635", "Longitude": "-74.894694"}, {"date": "2020-04-21", "county": "Jefferson", "state": "New York", "fips": 36045.0, "cases": 54, "deaths": 0, "Latitude": "43.995371", "Longitude": "-76.053522"}, {"date": "2020-04-21", "county": "Lewis", "state": "New York", "fips": 36049.0, "cases": 9, "deaths": 0, "Latitude": "43.786397", "Longitude": "-75.442617"}, {"date": "2020-04-21", "county": "Livingston", "state": "New York", "fips": 36051.0, "cases": 39, "deaths": 2, "Latitude": "42.727485", "Longitude": "-77.769780"}, {"date": "2020-04-21", "county": "Madison", "state": "New York", "fips": 36053.0, "cases": 106, "deaths": 3, "Latitude": "42.910026", "Longitude": "-75.663575"}, {"date": "2020-04-21", "county": "Monroe", "state": "New York", "fips": 36055.0, "cases": 1070, "deaths": 69, "Latitude": "43.464475", "Longitude": "-77.664656"}, {"date": "2020-04-21", "county": "Montgomery", "state": "New York", "fips": 36057.0, "cases": 37, "deaths": 1, "Latitude": "42.900891", "Longitude": "-74.435358"}, {"date": "2020-04-21", "county": "Nassau", "state": "New York", "fips": 36059.0, "cases": 31079, "deaths": 1717, "Latitude": "40.729687", "Longitude": "-73.589384"}, {"date": "2020-04-21", "county": "New York City", "state": "New York", "fips": 0, "cases": 139335, "deaths": 10301, "Latitude": "40.776557", "Longitude": "-73.970174"}, {"date": "2020-04-21", "county": "Niagara", "state": "New York", "fips": 36063.0, "cases": 260, "deaths": 9, "Latitude": "43.456731", "Longitude": "-78.792143"}, {"date": "2020-04-21", "county": "Oneida", "state": "New York", "fips": 36065.0, "cases": 284, "deaths": 6, "Latitude": "43.242727", "Longitude": "-75.434282"}, {"date": "2020-04-21", "county": "Onondaga", "state": "New York", "fips": 36067.0, "cases": 514, "deaths": 26, "Latitude": "43.006530", "Longitude": "-76.196117"}, {"date": "2020-04-21", "county": "Ontario", "state": "New York", "fips": 36069.0, "cases": 72, "deaths": 2, "Latitude": "42.856695", "Longitude": "-77.303277"}, {"date": "2020-04-21", "county": "Orange", "state": "New York", "fips": 36071.0, "cases": 6576, "deaths": 181, "Latitude": "41.402410", "Longitude": "-74.306252"}, {"date": "2020-04-21", "county": "Orleans", "state": "New York", "fips": 36073.0, "cases": 53, "deaths": 1, "Latitude": "43.502287", "Longitude": "-78.229726"}, {"date": "2020-04-21", "county": "Oswego", "state": "New York", "fips": 36075.0, "cases": 49, "deaths": 0, "Latitude": "43.461443", "Longitude": "-76.209258"}, {"date": "2020-04-21", "county": "Otsego", "state": "New York", "fips": 36077.0, "cases": 49, "deaths": 5, "Latitude": "42.629776", "Longitude": "-75.028841"}, {"date": "2020-04-21", "county": "Putnam", "state": "New York", "fips": 36079.0, "cases": 605, "deaths": 38, "Latitude": "41.427904", "Longitude": "-73.743882"}, {"date": "2020-04-21", "county": "Rensselaer", "state": "New York", "fips": 36083.0, "cases": 183, "deaths": 11, "Latitude": "42.710421", "Longitude": "-73.513845"}, {"date": "2020-04-21", "county": "Rockland", "state": "New York", "fips": 36087.0, "cases": 9568, "deaths": 297, "Latitude": "41.154785", "Longitude": "-74.024772"}, {"date": "2020-04-21", "county": "Saratoga", "state": "New York", "fips": 36091.0, "cases": 257, "deaths": 2, "Latitude": "43.106135", "Longitude": "-73.855387"}, {"date": "2020-04-21", "county": "Schenectady", "state": "New York", "fips": 36093.0, "cases": 273, "deaths": 18, "Latitude": "42.817542", "Longitude": "-74.043583"}, {"date": "2020-04-21", "county": "Schoharie", "state": "New York", "fips": 36095.0, "cases": 20, "deaths": 0, "Latitude": "42.591294", "Longitude": "-74.438172"}, {"date": "2020-04-21", "county": "Schuyler", "state": "New York", "fips": 36097.0, "cases": 7, "deaths": 0, "Latitude": "42.419776", "Longitude": "-76.938604"}, {"date": "2020-04-21", "county": "Seneca", "state": "New York", "fips": 36099.0, "cases": 18, "deaths": 1, "Latitude": "42.782294", "Longitude": "-76.827088"}, {"date": "2020-04-21", "county": "St. Lawrence", "state": "New York", "fips": 36089.0, "cases": 120, "deaths": 1, "Latitude": "44.488113", "Longitude": "-75.074311"}, {"date": "2020-04-21", "county": "Steuben", "state": "New York", "fips": 36101.0, "cases": 170, "deaths": 9, "Latitude": "42.266725", "Longitude": "-77.385525"}, {"date": "2020-04-21", "county": "Suffolk", "state": "New York", "fips": 36103.0, "cases": 28154, "deaths": 918, "Latitude": "40.943554", "Longitude": "-72.692218"}, {"date": "2020-04-21", "county": "Sullivan", "state": "New York", "fips": 36105.0, "cases": 555, "deaths": 8, "Latitude": "41.720176", "Longitude": "-74.764680"}, {"date": "2020-04-21", "county": "Tioga", "state": "New York", "fips": 36107.0, "cases": 37, "deaths": 2, "Latitude": "42.178057", "Longitude": "-76.297450"}, {"date": "2020-04-21", "county": "Tompkins", "state": "New York", "fips": 36109.0, "cases": 119, "deaths": 2, "Latitude": "42.453281", "Longitude": "-76.473712"}, {"date": "2020-04-21", "county": "Ulster", "state": "New York", "fips": 36111.0, "cases": 893, "deaths": 2, "Latitude": "41.947232", "Longitude": "-74.265447"}, {"date": "2020-04-21", "county": "Warren", "state": "New York", "fips": 36113.0, "cases": 102, "deaths": 6, "Latitude": "43.555105", "Longitude": "-73.838139"}, {"date": "2020-04-21", "county": "Washington", "state": "New York", "fips": 36115.0, "cases": 68, "deaths": 0, "Latitude": "43.312377", "Longitude": "-73.439428"}, {"date": "2020-04-21", "county": "Wayne", "state": "New York", "fips": 36117.0, "cases": 51, "deaths": 0, "Latitude": "43.458758", "Longitude": "-77.063164"}, {"date": "2020-04-21", "county": "Westchester", "state": "New York", "fips": 36119.0, "cases": 24655, "deaths": 904, "Latitude": "41.152770", "Longitude": "-73.745912"}, {"date": "2020-04-21", "county": "Wyoming", "state": "New York", "fips": 36121.0, "cases": 36, "deaths": 3, "Latitude": "42.701363", "Longitude": "-78.228567"}, {"date": "2020-04-21", "county": "Yates", "state": "New York", "fips": 36123.0, "cases": 10, "deaths": 0, "Latitude": "42.638237", "Longitude": "-77.104324"}]